{
  "type": "FeatureCollection",
  "features": [
    {
      "type": "Feature",
      "geometry": {
        "type": "Point",
        "coordinates": [
          -70.78444444444445,
          -33.41972222222222
        ]
      },
      "properties": {
        "layer": "NOMBRES_WAYPOINTS",
        "name": "AMB",
        "type": "text"
      }
    },
    {
      "type": "Feature",
      "geometry": {
        "type": "Point",
        "coordinates": [
          -71.7125,
          -45.91305555555555
        ]
      },
      "properties": {
        "layer": "NOMBRES_WAYPOINTS",
        "name": "BAL",
        "type": "text"
      }
    },
    {
      "type": "Feature",
      "geometry": {
        "type": "Point",
        "coordinates": [
          -71.1888888888889,
          -41.140277777777776
        ]
      },
      "properties": {
        "layer": "NOMBRES_WAYPOINTS",
        "name": "BAR",
        "type": "text"
      }
    },
    {
      "type": "Feature",
      "geometry": {
        "type": "Point",
        "coordinates": [
          -62.15833333333333,
          -38.72
        ]
      },
      "properties": {
        "layer": "NOMBRES_WAYPOINTS",
        "name": "BCA",
        "type": "text"
      }
    },
    {
      "type": "Feature",
      "geometry": {
        "type": "Point",
        "coordinates": [
          -65.74666666666667,
          -28.58361111111111
        ]
      },
      "properties": {
        "layer": "NOMBRES_WAYPOINTS",
        "name": "CAT",
        "type": "text"
      }
    },
    {
      "type": "Feature",
      "geometry": {
        "type": "Point",
        "coordinates": [
          -64.20361111111112,
          -31.313333333333333
        ]
      },
      "properties": {
        "layer": "NOMBRES_WAYPOINTS",
        "name": "CBA",
        "type": "text"
      }
    },
    {
      "type": "Feature",
      "geometry": {
        "type": "Point",
        "coordinates": [
          -72.03277777777778,
          -36.58638888888889
        ]
      },
      "properties": {
        "layer": "NOMBRES_WAYPOINTS",
        "name": "CHI",
        "type": "text"
      }
    },
    {
      "type": "Feature",
      "geometry": {
        "type": "Point",
        "coordinates": [
          -71.09527777777777,
          -40.04888888888889
        ]
      },
      "properties": {
        "layer": "NOMBRES_WAYPOINTS",
        "name": "CHP",
        "type": "text"
      }
    },
    {
      "type": "Feature",
      "geometry": {
        "type": "Point",
        "coordinates": [
          -56.025,
          -34.83277777777778
        ]
      },
      "properties": {
        "layer": "NOMBRES_WAYPOINTS",
        "name": "CRR",
        "type": "text"
      }
    },
    {
      "type": "Feature",
      "geometry": {
        "type": "Point",
        "coordinates": [
          -58.76166666666666,
          -27.43722222222222
        ]
      },
      "properties": {
        "layer": "NOMBRES_WAYPOINTS",
        "name": "CRS",
        "type": "text"
      }
    },
    {
      "type": "Feature",
      "geometry": {
        "type": "Point",
        "coordinates": [
          -67.37166666666666,
          -45.77333333333333
        ]
      },
      "properties": {
        "layer": "NOMBRES_WAYPOINTS",
        "name": "CRV",
        "type": "text"
      }
    },
    {
      "type": "Feature",
      "geometry": {
        "type": "Point",
        "coordinates": [
          -59.22944444444445,
          -37.225
        ]
      },
      "properties": {
        "layer": "NOMBRES_WAYPOINTS",
        "name": "DIL",
        "type": "text"
      }
    },
    {
      "type": "Feature",
      "geometry": {
        "type": "Point",
        "coordinates": [
          -68.79083333333332,
          -32.831944444444446
        ]
      },
      "properties": {
        "layer": "NOMBRES_WAYPOINTS",
        "name": "DOZ",
        "type": "text"
      }
    },
    {
      "type": "Feature",
      "geometry": {
        "type": "Point",
        "coordinates": [
          -65.10083333333333,
          -42.76
        ]
      },
      "properties": {
        "layer": "NOMBRES_WAYPOINTS",
        "name": "DRY",
        "type": "text"
      }
    },
    {
      "type": "Feature",
      "geometry": {
        "type": "Point",
        "coordinates": [
          -56.49611111111111,
          -33.35638888888889
        ]
      },
      "properties": {
        "layer": "NOMBRES_WAYPOINTS",
        "name": "DUR",
        "type": "text"
      }
    },
    {
      "type": "Feature",
      "geometry": {
        "type": "Point",
        "coordinates": [
          -72.04555555555555,
          -50.27833333333333
        ]
      },
      "properties": {
        "layer": "NOMBRES_WAYPOINTS",
        "name": "ECA",
        "type": "text"
      }
    },
    {
      "type": "Feature",
      "geometry": {
        "type": "Point",
        "coordinates": [
          -61.92527777777777,
          -29.873333333333335
        ]
      },
      "properties": {
        "layer": "NOMBRES_WAYPOINTS",
        "name": "ERE",
        "type": "text"
      }
    },
    {
      "type": "Feature",
      "geometry": {
        "type": "Point",
        "coordinates": [
          -71.10027777777778,
          -42.88722222222222
        ]
      },
      "properties": {
        "layer": "NOMBRES_WAYPOINTS",
        "name": "ESQ",
        "type": "text"
      }
    },
    {
      "type": "Feature",
      "geometry": {
        "type": "Point",
        "coordinates": [
          -58.53527777777778,
          -34.82416666666667
        ]
      },
      "properties": {
        "layer": "NOMBRES_WAYPOINTS",
        "name": "EZE",
        "type": "text"
      }
    },
    {
      "type": "Feature",
      "geometry": {
        "type": "Point",
        "coordinates": [
          -58.58416666666667,
          -34.45138888888889
        ]
      },
      "properties": {
        "layer": "NOMBRES_WAYPOINTS",
        "name": "FDO",
        "type": "text"
      }
    },
    {
      "type": "Feature",
      "geometry": {
        "type": "Point",
        "coordinates": [
          -54.50361111111111,
          -25.583333333333332
        ]
      },
      "properties": {
        "layer": "NOMBRES_WAYPOINTS",
        "name": "FOZ",
        "type": "text"
      }
    },
    {
      "type": "Feature",
      "geometry": {
        "type": "Point",
        "coordinates": [
          -58.224722222222226,
          -26.210277777777776
        ]
      },
      "properties": {
        "layer": "NOMBRES_WAYPOINTS",
        "name": "FSA",
        "type": "text"
      }
    },
    {
      "type": "Feature",
      "geometry": {
        "type": "Point",
        "coordinates": [
          -69.33027777777778,
          -51.611111111111114
        ]
      },
      "properties": {
        "layer": "NOMBRES_WAYPOINTS",
        "name": "GAL",
        "type": "text"
      }
    },
    {
      "type": "Feature",
      "geometry": {
        "type": "Point",
        "coordinates": [
          -58.46472222222223,
          -35.75083333333333
        ]
      },
      "properties": {
        "layer": "NOMBRES_WAYPOINTS",
        "name": "GBE",
        "type": "text"
      }
    },
    {
      "type": "Feature",
      "geometry": {
        "type": "Point",
        "coordinates": [
          -63.76222222222222,
          -35.69222222222222
        ]
      },
      "properties": {
        "layer": "NOMBRES_WAYPOINTS",
        "name": "GPI",
        "type": "text"
      }
    },
    {
      "type": "Feature",
      "geometry": {
        "type": "Point",
        "coordinates": [
          -67.74583333333334,
          -53.775277777777774
        ]
      },
      "properties": {
        "layer": "NOMBRES_WAYPOINTS",
        "name": "GRA",
        "type": "text"
      }
    },
    {
      "type": "Feature",
      "geometry": {
        "type": "Point",
        "coordinates": [
          -58.61416666666667,
          -33.00972222222222
        ]
      },
      "properties": {
        "layer": "NOMBRES_WAYPOINTS",
        "name": "GUA",
        "type": "text"
      }
    },
    {
      "type": "Feature",
      "geometry": {
        "type": "Point",
        "coordinates": [
          -71.21583333333334,
          -34.967777777777776
        ]
      },
      "properties": {
        "layer": "NOMBRES_WAYPOINTS",
        "name": "ICO",
        "type": "text"
      }
    },
    {
      "type": "Feature",
      "geometry": {
        "type": "Point",
        "coordinates": [
          -54.48583333333333,
          -25.734444444444446
        ]
      },
      "properties": {
        "layer": "NOMBRES_WAYPOINTS",
        "name": "IGU",
        "type": "text"
      }
    },
    {
      "type": "Feature",
      "geometry": {
        "type": "Point",
        "coordinates": [
          -58.965833333333336,
          -62.19083333333333
        ]
      },
      "properties": {
        "layer": "NOMBRES_WAYPOINTS",
        "name": "IRJ",
        "type": "text"
      }
    },
    {
      "type": "Feature",
      "geometry": {
        "type": "Point",
        "coordinates": [
          -68.4213888888889,
          -31.56388888888889
        ]
      },
      "properties": {
        "layer": "NOMBRES_WAYPOINTS",
        "name": "JUA",
        "type": "text"
      }
    },
    {
      "type": "Feature",
      "geometry": {
        "type": "Point",
        "coordinates": [
          -65.09277777777777,
          -24.39361111111111
        ]
      },
      "properties": {
        "layer": "NOMBRES_WAYPOINTS",
        "name": "JUJ",
        "type": "text"
      }
    },
    {
      "type": "Feature",
      "geometry": {
        "type": "Point",
        "coordinates": [
          -66.80361111111111,
          -29.38861111111111
        ]
      },
      "properties": {
        "layer": "NOMBRES_WAYPOINTS",
        "name": "LAR",
        "type": "text"
      }
    },
    {
      "type": "Feature",
      "geometry": {
        "type": "Point",
        "coordinates": [
          -68.87555555555555,
          -22.501944444444444
        ]
      },
      "properties": {
        "layer": "NOMBRES_WAYPOINTS",
        "name": "LOA",
        "type": "text"
      }
    },
    {
      "type": "Feature",
      "geometry": {
        "type": "Point",
        "coordinates": [
          -63.36083333333333,
          -34.14138888888889
        ]
      },
      "properties": {
        "layer": "NOMBRES_WAYPOINTS",
        "name": "LYE",
        "type": "text"
      }
    },
    {
      "type": "Feature",
      "geometry": {
        "type": "Point",
        "coordinates": [
          -56.62,
          -64.23472222222222
        ]
      },
      "properties": {
        "layer": "NOMBRES_WAYPOINTS",
        "name": "MBI",
        "type": "text"
      }
    },
    {
      "type": "Feature",
      "geometry": {
        "type": "Point",
        "coordinates": [
          -57.57638888888889,
          -37.92972222222222
        ]
      },
      "properties": {
        "layer": "NOMBRES_WAYPOINTS",
        "name": "MDP",
        "type": "text"
      }
    },
    {
      "type": "Feature",
      "geometry": {
        "type": "Point",
        "coordinates": [
          -62.16111111111111,
          -32.68611111111111
        ]
      },
      "properties": {
        "layer": "NOMBRES_WAYPOINTS",
        "name": "MJZ",
        "type": "text"
      }
    },
    {
      "type": "Feature",
      "geometry": {
        "type": "Point",
        "coordinates": [
          -69.5786111111111,
          -35.486111111111114
        ]
      },
      "properties": {
        "layer": "NOMBRES_WAYPOINTS",
        "name": "MLG",
        "type": "text"
      }
    },
    {
      "type": "Feature",
      "geometry": {
        "type": "Point",
        "coordinates": [
          -73.09194444444444,
          -41.42916666666667
        ]
      },
      "properties": {
        "layer": "NOMBRES_WAYPOINTS",
        "name": "MON",
        "type": "text"
      }
    },
    {
      "type": "Feature",
      "geometry": {
        "type": "Point",
        "coordinates": [
          -58.41972222222222,
          -51.82611111111112
        ]
      },
      "properties": {
        "layer": "NOMBRES_WAYPOINTS",
        "name": "MTP",
        "type": "text"
      }
    },
    {
      "type": "Feature",
      "geometry": {
        "type": "Point",
        "coordinates": [
          -70.85527777777777,
          -53.00416666666667
        ]
      },
      "properties": {
        "layer": "NOMBRES_WAYPOINTS",
        "name": "NAS",
        "type": "text"
      }
    },
    {
      "type": "Feature",
      "geometry": {
        "type": "Point",
        "coordinates": [
          -68.15472222222223,
          -38.95027777777778
        ]
      },
      "properties": {
        "layer": "NOMBRES_WAYPOINTS",
        "name": "NEU",
        "type": "text"
      }
    },
    {
      "type": "Feature",
      "geometry": {
        "type": "Point",
        "coordinates": [
          -72.6438888888889,
          -38.90611111111111
        ]
      },
      "properties": {
        "layer": "NOMBRES_WAYPOINTS",
        "name": "NIA",
        "type": "text"
      }
    },
    {
      "type": "Feature",
      "geometry": {
        "type": "Point",
        "coordinates": [
          -60.93388888888889,
          -34.54111111111111
        ]
      },
      "properties": {
        "layer": "NOMBRES_WAYPOINTS",
        "name": "NIN",
        "type": "text"
      }
    },
    {
      "type": "Feature",
      "geometry": {
        "type": "Point",
        "coordinates": [
          -65.60916666666667,
          -39.2825
        ]
      },
      "properties": {
        "layer": "NOMBRES_WAYPOINTS",
        "name": "OEL",
        "type": "text"
      }
    },
    {
      "type": "Feature",
      "geometry": {
        "type": "Point",
        "coordinates": [
          -64.27277777777778,
          -36.58361111111111
        ]
      },
      "properties": {
        "layer": "NOMBRES_WAYPOINTS",
        "name": "OSA",
        "type": "text"
      }
    },
    {
      "type": "Feature",
      "geometry": {
        "type": "Point",
        "coordinates": [
          -58.61388888888889,
          -34.611666666666665
        ]
      },
      "properties": {
        "layer": "NOMBRES_WAYPOINTS",
        "name": "PAL",
        "type": "text"
      }
    },
    {
      "type": "Feature",
      "geometry": {
        "type": "Point",
        "coordinates": [
          -60.484722222222224,
          -31.808333333333334
        ]
      },
      "properties": {
        "layer": "NOMBRES_WAYPOINTS",
        "name": "PAR",
        "type": "text"
      }
    },
    {
      "type": "Feature",
      "geometry": {
        "type": "Point",
        "coordinates": [
          -57.275555555555556,
          -35.34527777777778
        ]
      },
      "properties": {
        "layer": "NOMBRES_WAYPOINTS",
        "name": "PDI",
        "type": "text"
      }
    },
    {
      "type": "Feature",
      "geometry": {
        "type": "Point",
        "coordinates": [
          -55.969166666666666,
          -27.385555555555555
        ]
      },
      "properties": {
        "layer": "NOMBRES_WAYPOINTS",
        "name": "POS",
        "type": "text"
      }
    },
    {
      "type": "Feature",
      "geometry": {
        "type": "Point",
        "coordinates": [
          -57.89833333333333,
          -34.975833333333334
        ]
      },
      "properties": {
        "layer": "NOMBRES_WAYPOINTS",
        "name": "PTA",
        "type": "text"
      }
    },
    {
      "type": "Feature",
      "geometry": {
        "type": "Point",
        "coordinates": [
          -67.6211111111111,
          -54.92944444444444
        ]
      },
      "properties": {
        "layer": "NOMBRES_WAYPOINTS",
        "name": "PWL",
        "type": "text"
      }
    },
    {
      "type": "Feature",
      "geometry": {
        "type": "Point",
        "coordinates": [
          -64.265,
          -33.092222222222226
        ]
      },
      "properties": {
        "layer": "NOMBRES_WAYPOINTS",
        "name": "RCU",
        "type": "text"
      }
    },
    {
      "type": "Feature",
      "geometry": {
        "type": "Point",
        "coordinates": [
          -60.78138888888889,
          -32.905
        ]
      },
      "properties": {
        "layer": "NOMBRES_WAYPOINTS",
        "name": "ROS",
        "type": "text"
      }
    },
    {
      "type": "Feature",
      "geometry": {
        "type": "Point",
        "coordinates": [
          -59.6825,
          -29.20861111111111
        ]
      },
      "properties": {
        "layer": "NOMBRES_WAYPOINTS",
        "name": "RTA",
        "type": "text"
      }
    },
    {
      "type": "Feature",
      "geometry": {
        "type": "Point",
        "coordinates": [
          -65.38111111111111,
          -33.728611111111114
        ]
      },
      "properties": {
        "layer": "NOMBRES_WAYPOINTS",
        "name": "RYD",
        "type": "text"
      }
    },
    {
      "type": "Feature",
      "geometry": {
        "type": "Point",
        "coordinates": [
          -65.48388888888888,
          -24.852222222222224
        ]
      },
      "properties": {
        "layer": "NOMBRES_WAYPOINTS",
        "name": "SAL",
        "type": "text"
      }
    },
    {
      "type": "Feature",
      "geometry": {
        "type": "Point",
        "coordinates": [
          -64.30277777777778,
          -27.75888888888889
        ]
      },
      "properties": {
        "layer": "NOMBRES_WAYPOINTS",
        "name": "SDE",
        "type": "text"
      }
    },
    {
      "type": "Feature",
      "geometry": {
        "type": "Point",
        "coordinates": [
          -59.05722222222222,
          -27.446944444444444
        ]
      },
      "properties": {
        "layer": "NOMBRES_WAYPOINTS",
        "name": "SIS",
        "type": "text"
      }
    },
    {
      "type": "Feature",
      "geometry": {
        "type": "Point",
        "coordinates": [
          -67.81277777777777,
          -49.30972222222222
        ]
      },
      "properties": {
        "layer": "NOMBRES_WAYPOINTS",
        "name": "SJU",
        "type": "text"
      }
    },
    {
      "type": "Feature",
      "geometry": {
        "type": "Point",
        "coordinates": [
          -59.44138888888889,
          -34.22222222222222
        ]
      },
      "properties": {
        "layer": "NOMBRES_WAYPOINTS",
        "name": "SNT",
        "type": "text"
      }
    },
    {
      "type": "Feature",
      "geometry": {
        "type": "Point",
        "coordinates": [
          -68.39472222222223,
          -34.589444444444446
        ]
      },
      "properties": {
        "layer": "NOMBRES_WAYPOINTS",
        "name": "SRA",
        "type": "text"
      }
    },
    {
      "type": "Feature",
      "geometry": {
        "type": "Point",
        "coordinates": [
          -65.18333333333334,
          -32.3725
        ]
      },
      "properties": {
        "layer": "NOMBRES_WAYPOINTS",
        "name": "SRC",
        "type": "text"
      }
    },
    {
      "type": "Feature",
      "geometry": {
        "type": "Point",
        "coordinates": [
          -70.83722222222222,
          -32.91833333333333
        ]
      },
      "properties": {
        "layer": "NOMBRES_WAYPOINTS",
        "name": "TBN",
        "type": "text"
      }
    },
    {
      "type": "Feature",
      "geometry": {
        "type": "Point",
        "coordinates": [
          -65.24722222222222,
          -43.2025
        ]
      },
      "properties": {
        "layer": "NOMBRES_WAYPOINTS",
        "name": "TRE",
        "type": "text"
      }
    },
    {
      "type": "Feature",
      "geometry": {
        "type": "Point",
        "coordinates": [
          -64.93361111111112,
          -27.496666666666666
        ]
      },
      "properties": {
        "layer": "NOMBRES_WAYPOINTS",
        "name": "TRH",
        "type": "text"
      }
    },
    {
      "type": "Feature",
      "geometry": {
        "type": "Point",
        "coordinates": [
          -65.10833333333333,
          -26.84583333333333
        ]
      },
      "properties": {
        "layer": "NOMBRES_WAYPOINTS",
        "name": "TUC",
        "type": "text"
      }
    },
    {
      "type": "Feature",
      "geometry": {
        "type": "Point",
        "coordinates": [
          -66.35777777777777,
          -33.26833333333333
        ]
      },
      "properties": {
        "layer": "NOMBRES_WAYPOINTS",
        "name": "UIS",
        "type": "text"
      }
    },
    {
      "type": "Feature",
      "geometry": {
        "type": "Point",
        "coordinates": [
          -68.28416666666666,
          -54.838055555555556
        ]
      },
      "properties": {
        "layer": "NOMBRES_WAYPOINTS",
        "name": "USU",
        "type": "text"
      }
    },
    {
      "type": "Feature",
      "geometry": {
        "type": "Point",
        "coordinates": [
          -57.52194444444444,
          -25.24416666666667
        ]
      },
      "properties": {
        "layer": "NOMBRES_WAYPOINTS",
        "name": "VAS",
        "type": "text"
      }
    },
    {
      "type": "Feature",
      "geometry": {
        "type": "Point",
        "coordinates": [
          -63.00083333333333,
          -40.867222222222225
        ]
      },
      "properties": {
        "layer": "NOMBRES_WAYPOINTS",
        "name": "VIE",
        "type": "text"
      }
    }
  ]
}